[{"time":"12/21 22:09","latitude":"23.01","longitude":"121.35","amgnitude":"4.2","depth":" 43.6","location":"臺東縣政府東北方  34.6  公里 (位於臺東縣近海)\n","url":"ECL1221220942.htm"},{"time":"12/18 10:52","latitude":"24.26","longitude":"121.86","amgnitude":"3.8","depth":" 22.1","location":"花蓮縣政府東北方  38.8  公里 (位於臺灣東部海域)\n","url":"ECL1218105238.htm"},{"time":"12/17 21:02","latitude":"22.87","longitude":"120.11","amgnitude":"2.8","depth":" 16.5","location":"高雄市政府西北方  34.5  公里 (位於高雄市近海)\n","url":"ECL1217210228.htm"},{"time":"12/17 07:41","latitude":"24.04","longitude":"121.53","amgnitude":"4.0","depth":" 17.9","location":"花蓮縣政府西偏北方  10.5  公里 (位於花蓮縣秀林鄉)\n","url":"EC1217074140066.htm"},{"time":"12/16 19:25","latitude":"24.54","longitude":"121.77","amgnitude":"5.0","depth":" 49.3","location":"宜蘭縣政府南方  21.2  公里 (位於宜蘭縣南澳鄉)\n","url":"EC1216192550065.htm"},{"time":"12/15 17:03","latitude":"23.49","longitude":"120.47","amgnitude":"2.2","depth":"  7.8","location":"嘉義市政府東北方  2.1  公里 (位於嘉義市東區)\n","url":"ECL1215170322.htm"},{"time":"12/15 04:13","latitude":"24.01","longitude":"121.68","amgnitude":"3.3","depth":" 39.1","location":"花蓮縣政府東偏北方  6.2  公里 (位於花蓮縣近海)\n","url":"ECL1215041333.htm"},{"time":"12/11 22:02","latitude":"24.79","longitude":"121.89","amgnitude":"4.0","depth":"  7.7","location":"宜蘭縣政府東偏北方  14.0  公里 (位於宜蘭縣近海)\n","url":"EC1211220240064.htm"},{"time":"12/11 21:23","latitude":"24.78","longitude":"121.88","amgnitude":"3.8","depth":"  7.2","location":"宜蘭縣政府東偏北方  13.4  公里 (位於宜蘭縣近海)\n","url":"ECL1211212338.htm"},{"time":"12/10 12:13","latitude":"24.05","longitude":"121.51","amgnitude":"4.0","depth":" 21.5","location":"花蓮縣政府西偏北方  13.6  公里 (位於花蓮縣秀林鄉)\n","url":"EC1210121340063.htm"},{"time":"12/09 22:38","latitude":"23.20","longitude":"121.40","amgnitude":"3.8","depth":" 22.1","location":"臺東縣政府北偏東方  55.6  公里 (位於臺東縣近海)\n","url":"ECL1209223838.htm"},{"time":"12/07 13:21","latitude":"24.17","longitude":"121.60","amgnitude":"3.1","depth":" 17.3","location":"花蓮縣政府北方  20.4  公里 (位於花蓮縣秀林鄉)\n","url":"ECL1207132131.htm"},{"time":"12/07 03:32","latitude":"24.54","longitude":"122.66","amgnitude":"4.7","depth":"100.5","location":"宜蘭縣政府東偏南方  93.2  公里 (位於臺灣東部海域)\n","url":"EC1207033247062.htm"},{"time":"12/06 10:35","latitude":"24.04","longitude":"121.72","amgnitude":"3.6","depth":"  6.2","location":"花蓮縣政府東偏北方  11.7  公里 (位於臺灣東部海域)\n","url":"ECL1206103536.htm"},{"time":"12/05 14:46","latitude":"22.73","longitude":"120.41","amgnitude":"3.6","depth":" 24.3","location":"高雄市政府東北方  15.7  公里 (位於高雄市大樹區)\n","url":"ECL1205144636.htm"}]